{
  "version": "2.4.0",
  "updated": "2025-11-19T06:08:00Z",
  "servers": [
    {
      "name": "Cloudflare CDN",
      "url": "https://speed.cloudflare.com/__down?bytes=100000000",
      "provider": "Cloudflare",
      "location": "Global CDN",
      "region": "Global",
      "file_size": 100000000,
      "enabled": true
    },
    {
      "name": "Tele2 Global",
      "url": "http://speedtest.tele2.net/100MB.zip",
      "provider": "Tele2",
      "location": "Global",
      "region": "Global",
      "file_size": 104857600,
      "enabled": true
    },
    {
      "name": "Hetzner Nuremberg",
      "url": "https://nbg1-speed.hetzner.com/100MB.bin",
      "provider": "Hetzner",
      "location": "Nuremberg, Germany",
      "region": "Europe",
      "lat": 49.4521,
      "lon": 11.0767,
      "file_size": 104857600,
      "enabled": true
    },
    {
      "name": "Hetzner Falkenstein",
      "url": "https://fsn1-speed.hetzner.com/100MB.bin",
      "provider": "Hetzner",
      "location": "Falkenstein, Germany",
      "region": "Europe",
      "lat": 50.4779,
      "lon": 12.3713,
      "file_size": 104857600,
      "enabled": true
    },
    {
      "name": "Hetzner Helsinki",
      "url": "https://hel1-speed.hetzner.com/100MB.bin",
      "provider": "Hetzner",
      "location": "Helsinki, Finland",
      "region": "Europe",
      "lat": 60.1695,
      "lon": 24.9354,
      "file_size": 104857600,
      "enabled": true
    },
    {
      "name": "Hetzner Ashburn",
      "url": "https://ash-speed.hetzner.com/100MB.bin",
      "provider": "Hetzner",
      "location": "Ashburn, Virginia, USA",
      "region": "North America",
      "lat": 39.0438,
      "lon": -77.4874,
      "file_size": 104857600,
      "enabled": true
    },
    {
      "name": "Hetzner Hillsboro",
      "url": "https://hil-speed.hetzner.com/100MB.bin",
      "provider": "Hetzner",
      "location": "Hillsboro, Oregon, USA",
      "region": "North America",
      "lat": 45.5229,
      "lon": -122.9698,
      "file_size": 104857600,
      "enabled": true
    },
    {
      "name": "Hetzner Singapore",
      "url": "https://sin-speed.hetzner.com/100MB.bin",
      "provider": "Hetzner",
      "location": "Singapore",
      "region": "Asia",
      "lat": 1.3521,
      "lon": 103.8198,
      "file_size": 104857600,
      "enabled": true
    },
    {
      "name": "Vultr New Jersey",
      "url": "https://nj-us-ping.vultr.com/vultr.com.100MB.bin",
      "provider": "Vultr",
      "location": "New Jersey, USA",
      "region": "North America",
      "lat": 40.7357,
      "lon": -74.1724,
      "file_size": 104857600,
      "enabled": true
    },
    {
      "name": "Vultr Atlanta",
      "url": "https://ga-us-ping.vultr.com/vultr.com.100MB.bin",
      "provider": "Vultr",
      "location": "Atlanta, Georgia, USA",
      "region": "North America",
      "lat": 33.7490,
      "lon": -84.3880,
      "file_size": 104857600,
      "enabled": true
    },
    {
      "name": "Vultr Chicago",
      "url": "https://il-us-ping.vultr.com/vultr.com.100MB.bin",
      "provider": "Vultr",
      "location": "Chicago, Illinois, USA",
      "region": "North America",
      "lat": 41.8781,
      "lon": -87.6298,
      "file_size": 104857600,
      "enabled": true
    },
    {
      "name": "Vultr Dallas",
      "url": "https://tx-us-ping.vultr.com/vultr.com.100MB.bin",
      "provider": "Vultr",
      "location": "Dallas, Texas, USA",
      "region": "North America",
      "lat": 32.7767,
      "lon": -96.7970,
      "file_size": 104857600,
      "enabled": true
    },
    {
      "name": "Vultr Seattle",
      "url": "https://wa-us-ping.vultr.com/vultr.com.100MB.bin",
      "provider": "Vultr",
      "location": "Seattle, Washington, USA",
      "region": "North America",
      "lat": 47.6062,
      "lon": -122.3321,
      "file_size": 104857600,
      "enabled": true
    },
    {
      "name": "Vultr Silicon Valley",
      "url": "https://sjo-ca-us-ping.vultr.com/vultr.com.100MB.bin",
      "provider": "Vultr",
      "location": "Silicon Valley, California, USA",
      "region": "North America",
      "lat": 37.3382,
      "lon": -121.8863,
      "file_size": 104857600,
      "enabled": true
    },
    {
      "name": "Vultr Los Angeles",
      "url": "https://lax-ca-us-ping.vultr.com/vultr.com.100MB.bin",
      "provider": "Vultr",
      "location": "Los Angeles, California, USA",
      "region": "North America",
      "lat": 34.0522,
      "lon": -118.2437,
      "file_size": 104857600,
      "enabled": true
    },
    {
      "name": "Vultr Amsterdam",
      "url": "https://ams-nl-ping.vultr.com/vultr.com.100MB.bin",
      "provider": "Vultr",
      "location": "Amsterdam, Netherlands",
      "region": "Europe",
      "lat": 52.3676,
      "lon": 4.9041,
      "file_size": 104857600,
      "enabled": true
    },
    {
      "name": "Vultr Frankfurt",
      "url": "https://fra-de-ping.vultr.com/vultr.com.100MB.bin",
      "provider": "Vultr",
      "location": "Frankfurt, Germany",
      "region": "Europe",
      "lat": 50.1109,
      "lon": 8.6821,
      "file_size": 104857600,
      "enabled": true
    },
    {
      "name": "Vultr Paris",
      "url": "https://par-fr-ping.vultr.com/vultr.com.100MB.bin",
      "provider": "Vultr",
      "location": "Paris, France",
      "region": "Europe",
      "lat": 48.8566,
      "lon": 2.3522,
      "file_size": 104857600,
      "enabled": true
    },
    {
      "name": "Vultr London",
      "url": "https://lon-gb-ping.vultr.com/vultr.com.100MB.bin",
      "provider": "Vultr",
      "location": "London, United Kingdom",
      "region": "Europe",
      "lat": 51.5074,
      "lon": -0.1278,
      "file_size": 104857600,
      "enabled": true
    },
    {
      "name": "Vultr Warsaw",
      "url": "https://waw-pl-ping.vultr.com/vultr.com.100MB.bin",
      "provider": "Vultr",
      "location": "Warsaw, Poland",
      "region": "Europe",
      "lat": 52.2297,
      "lon": 21.0122,
      "file_size": 104857600,
      "enabled": true
    },
    {
      "name": "Vultr Madrid",
      "url": "https://mad-es-ping.vultr.com/vultr.com.100MB.bin",
      "provider": "Vultr",
      "location": "Madrid, Spain",
      "region": "Europe",
      "lat": 40.4168,
      "lon": -3.7038,
      "file_size": 104857600,
      "enabled": true
    },
    {
      "name": "Vultr Stockholm",
      "url": "https://sto-se-ping.vultr.com/vultr.com.100MB.bin",
      "provider": "Vultr",
      "location": "Stockholm, Sweden",
      "region": "Europe",
      "lat": 59.3293,
      "lon": 18.0686,
      "file_size": 104857600,
      "enabled": true
    },
    {
      "name": "Vultr Singapore",
      "url": "https://sgp-ping.vultr.com/vultr.com.100MB.bin",
      "provider": "Vultr",
      "location": "Singapore",
      "region": "Asia",
      "lat": 1.3521,
      "lon": 103.8198,
      "file_size": 104857600,
      "enabled": true
    },
    {
      "name": "Vultr Bangalore",
      "url": "https://blr-in-ping.vultr.com/vultr.com.100MB.bin",
      "provider": "Vultr",
      "location": "Bangalore, India",
      "region": "Asia",
      "lat": 12.9716,
      "lon": 77.5946,
      "file_size": 104857600,
      "enabled": true
    },
    {
      "name": "Vultr Sydney",
      "url": "https://syd-au-ping.vultr.com/vultr.com.100MB.bin",
      "provider": "Vultr",
      "location": "Sydney, Australia",
      "region": "Oceania",
      "lat": -33.8688,
      "lon": 151.2093,
      "file_size": 104857600,
      "enabled": true
    },
    {
      "name": "Linode Newark",
      "url": "http://speedtest.newark.linode.com/100MB-newark.bin",
      "provider": "Linode",
      "location": "Newark, New Jersey, USA",
      "region": "North America",
      "lat": 40.7357,
      "lon": -74.1724,
      "file_size": 104857600,
      "enabled": true
    },
    {
      "name": "Linode Atlanta",
      "url": "http://speedtest.atlanta.linode.com/100MB-atlanta.bin",
      "provider": "Linode",
      "location": "Atlanta, Georgia, USA",
      "region": "North America",
      "lat": 33.7490,
      "lon": -84.3880,
      "file_size": 104857600,
      "enabled": true
    },
    {
      "name": "Linode Dallas",
      "url": "http://speedtest.dallas.linode.com/100MB-dallas.bin",
      "provider": "Linode",
      "location": "Dallas, Texas, USA",
      "region": "North America",
      "lat": 32.7767,
      "lon": -96.7970,
      "file_size": 104857600,
      "enabled": true
    },
    {
      "name": "Linode Fremont",
      "url": "http://speedtest.fremont.linode.com/100MB-fremont.bin",
      "provider": "Linode",
      "location": "Fremont, California, USA",
      "region": "North America",
      "lat": 37.5483,
      "lon": -121.9886,
      "file_size": 104857600,
      "enabled": true
    },
    {
      "name": "Linode Chicago",
      "url": "http://speedtest.chicago.linode.com/100MB-chicago.bin",
      "provider": "Linode",
      "location": "Chicago, Illinois, USA",
      "region": "North America",
      "lat": 41.8781,
      "lon": -87.6298,
      "file_size": 104857600,
      "enabled": true
    },
    {
      "name": "Linode Seattle",
      "url": "http://speedtest.seattle.linode.com/100MB-seattle.bin",
      "provider": "Linode",
      "location": "Seattle, Washington, USA",
      "region": "North America",
      "lat": 47.6062,
      "lon": -122.3321,
      "file_size": 104857600,
      "enabled": true
    },
    {
      "name": "Linode Miami",
      "url": "http://speedtest.miami.linode.com/100MB-miami.bin",
      "provider": "Linode",
      "location": "Miami, Florida, USA",
      "region": "North America",
      "lat": 25.7617,
      "lon": -80.1918,
      "file_size": 104857600,
      "enabled": true
    },
    {
      "name": "Linode London",
      "url": "http://speedtest.london.linode.com/100MB-london.bin",
      "provider": "Linode",
      "location": "London, United Kingdom",
      "region": "Europe",
      "lat": 51.5074,
      "lon": -0.1278,
      "file_size": 104857600,
      "enabled": true
    },
    {
      "name": "Linode Frankfurt",
      "url": "http://speedtest.frankfurt.linode.com/100MB-frankfurt.bin",
      "provider": "Linode",
      "location": "Frankfurt, Germany",
      "region": "Europe",
      "lat": 50.1109,
      "lon": 8.6821,
      "file_size": 104857600,
      "enabled": true
    },
    {
      "name": "Linode Amsterdam",
      "url": "http://speedtest.amsterdam.linode.com/100MB-amsterdam.bin",
      "provider": "Linode",
      "location": "Amsterdam, Netherlands",
      "region": "Europe",
      "lat": 52.3676,
      "lon": 4.9041,
      "file_size": 104857600,
      "enabled": true
    },
    {
      "name": "Linode Madrid",
      "url": "http://speedtest.madrid.linode.com/100MB-madrid.bin",
      "provider": "Linode",
      "location": "Madrid, Spain",
      "region": "Europe",
      "lat": 40.4168,
      "lon": -3.7038,
      "file_size": 104857600,
      "enabled": true
    },
    {
      "name": "Linode Singapore",
      "url": "http://speedtest.singapore.linode.com/100MB-singapore.bin",
      "provider": "Linode",
      "location": "Singapore",
      "region": "Asia",
      "lat": 1.3521,
      "lon": 103.8198,
      "file_size": 104857600,
      "enabled": true
    },
    {
      "name": "Linode Tokyo",
      "url": "http://speedtest.tokyo2.linode.com/100MB-tokyo2.bin",
      "provider": "Linode",
      "location": "Tokyo, Japan",
      "region": "Asia",
      "lat": 35.6762,
      "lon": 139.6503,
      "file_size": 104857600,
      "enabled": true
    },
    {
      "name": "Linode Osaka",
      "url": "http://speedtest.osaka.linode.com/100MB-osaka.bin",
      "provider": "Linode",
      "location": "Osaka, Japan",
      "region": "Asia",
      "lat": 34.6937,
      "lon": 135.5023,
      "file_size": 104857600,
      "enabled": true
    },
    {
      "name": "Linode Chennai",
      "url": "http://speedtest.chennai.linode.com/100MB-chennai.bin",
      "provider": "Linode",
      "location": "Chennai, India",
      "region": "Asia",
      "lat": 13.0827,
      "lon": 80.2707,
      "file_size": 104857600,
      "enabled": true
    },
    {
      "name": "Linode Jakarta",
      "url": "http://speedtest.jakarta.linode.com/100MB-jakarta.bin",
      "provider": "Linode",
      "location": "Jakarta, Indonesia",
      "region": "Asia",
      "lat": -6.2088,
      "lon": 106.8456,
      "file_size": 104857600,
      "enabled": true
    },
    {
      "name": "Linode Sydney",
      "url": "http://speedtest.sydney.linode.com/100MB-sydney.bin",
      "provider": "Linode",
      "location": "Sydney, Australia",
      "region": "Oceania",
      "lat": -33.8688,
      "lon": 151.2093,
      "file_size": 104857600,
      "enabled": true
    },
    {
      "name": "OVH Europe",
      "url": "https://proof.ovh.net/files/100Mb.dat",
      "provider": "OVH",
      "location": "Europe (Multi-region)",
      "region": "Europe",
      "file_size": 104857600,
      "enabled": true
    },
    {
      "name": "OVH Canada",
      "url": "https://proof.ovh.ca/files/100Mb.dat",
      "provider": "OVH",
      "location": "Canada",
      "region": "North America",
      "lat": 45.5017,
      "lon": -73.5673,
      "file_size": 104857600,
      "enabled": true
    },
    {
      "name": "OVH USA",
      "url": "https://proof.ovh.us/files/100Mb.dat",
      "provider": "OVH",
      "location": "United States",
      "region": "North America",
      "lat": 38.9072,
      "lon": -77.0369,
      "file_size": 104857600,
      "enabled": true
    },
    {
      "name": "OVH Australia",
      "url": "https://proof.ovh.au/files/100Mb.dat",
      "provider": "OVH",
      "location": "Sydney, Australia",
      "region": "Oceania",
      "lat": -33.8688,
      "lon": 151.2093,
      "file_size": 104857600,
      "enabled": true
    },
    {
      "name": "DataPacket São Paulo",
      "url": "https://sao.download.datapacket.com/100mb.bin",
      "provider": "DataPacket",
      "location": "São Paulo, Brazil",
      "region": "South America",
      "lat": -23.5505,
      "lon": -46.6333,
      "file_size": 100000000,
      "enabled": true
    },
    {
      "name": "DataPacket Hong Kong",
      "url": "https://hkg.download.datapacket.com/100mb.bin",
      "provider": "DataPacket",
      "location": "Hong Kong",
      "region": "Asia",
      "lat": 22.3193,
      "lon": 114.1694,
      "file_size": 100000000,
      "enabled": true
    },
    {
      "name": "DataPacket Prague",
      "url": "https://prg.download.datapacket.com/100mb.bin",
      "provider": "DataPacket",
      "location": "Prague, Czech Republic",
      "region": "Europe",
      "lat": 50.0755,
      "lon": 14.4378,
      "file_size": 100000000,
      "enabled": true
    },
    {
      "name": "DataPacket Sofia",
      "url": "https://sof.download.datapacket.com/100mb.bin",
      "provider": "DataPacket",
      "location": "Sofia, Bulgaria",
      "region": "Europe",
      "lat": 42.6977,
      "lon": 23.3219,
      "file_size": 100000000,
      "enabled": true
    }
  ]
}
